[
  { "Id": 1,  "Name": "The Great Pyramids of Giza", "City": "Giza", "Category": "Archaeological", "lat": 29.9792, "lng": 31.1342, "Description": "One of the Seven Wonders of the Ancient World.", "TicketPrice": 200.00, "OpeningHours": null, "Status": "Active", "Rating": 4.8, "Tags": "UNESCO, Wonder, Pyramid", "Visits": 18200 },
  { "Id": 2,  "Name": "The Great Sphinx", "City": "Giza", "Category": "Archaeological", "lat": 29.9753, "lng": 31.1376, "Description": "The iconic limestone statue on the Giza Plateau.", "TicketPrice": 0.00, "OpeningHours": null, "Status": "Active", "Rating": 4.7, "Tags": "Monument, Statue, Free Entry", "Visits": 15600 },
  { "Id": 3,  "Name": "Karnak Temple Complex", "City": "Luxor", "Category": "Temple", "lat": 25.7188, "lng": 32.6573, "Description": "The largest ancient religious site in the world.", "TicketPrice": 150.00, "OpeningHours": null, "Status": "Active", "Rating": 4.6, "Tags": "Temple, Religious, Columns", "Visits": 12450 },
  { "Id": 4,  "Name": "Valley of the Kings", "City": "Luxor", "Category": "Archaeological", "lat": 25.7402, "lng": 32.6014, "Description": "Royal burial ground of pharaohs from the New Kingdom era.", "TicketPrice": 180.00, "OpeningHours": null, "Status": "Active", "Rating": 4.7, "Tags": "Tomb, Archaeological, Royal", "Visits": 10300 },
  { "Id": 5,  "Name": "Abu Simbel Temples", "City": "Aswan", "Category": "Temple", "lat": 22.3372, "lng": 31.6258, "Description": "Rock-cut temples of Ramesses II on the shores of Lake Nasser.", "TicketPrice": 220.00, "OpeningHours": null, "Status": "Active", "Rating": 4.9, "Tags": "Temple, Ramses, UNESCO", "Visits": 8900 },
  { "Id": 6,  "Name": "Qaitbay Citadel", "City": "Alexandria", "Category": "Historical", "lat": 31.2141, "lng": 29.8858, "Description": "A 15th-century defensive fortress in Alexandria.", "TicketPrice": 40.00, "OpeningHours": null, "Status": "Active", "Rating": 4.3, "Tags": "Fortress, Historical, Sea View", "Visits": 7200 },
  { "Id": 7,  "Name": "Egyptian Museum", "City": "Cairo", "Category": "Museum", "lat": 30.0478, "lng": 31.2336, "Description": "Home to the world's largest collection of ancient Egyptian artifacts.", "TicketPrice": 100.00, "OpeningHours": null, "Status": "Active", "Rating": 4.5, "Tags": "Museum, Artifacts, Mummies", "Visits": 22100 },
  { "Id": 8,  "Name": "Saint Catherine's Monastery", "City": "South Sinai", "Category": "Religious", "lat": 28.5569, "lng": 33.9758, "Description": "One of the oldest Christian monasteries in the world.", "TicketPrice": 50.00, "OpeningHours": null, "Status": "Active", "Rating": 4.4, "Tags": "Monastery, Religious, Mountain", "Visits": 4500 },
  { "Id": 9,  "Name": "Siwa Oasis", "City": "Matrouh", "Category": "Natural", "lat": 29.2031, "lng": 25.5195, "Description": "A remote oasis home to the Oracle Temple of Amun.", "TicketPrice": 30.00, "OpeningHours": null, "Status": "Active", "Rating": 4.6, "Tags": "Oasis, Nature, Spring", "Visits": 3200 },
  { "Id": 10, "Name": "Wadi El Hitan (Whale Valley)", "City": "Fayoum", "Category": "Natural", "lat": 29.2711, "lng": 30.0389, "Description": "UNESCO World Heritage Site with fossils of ancient whales.", "TicketPrice": 25.00, "OpeningHours": null, "Status": "Pending", "Rating": 4.2, "Tags": "Fossils, Nature, Desert", "Visits": 1800 },
  { "Id": 11, "Name": "Dendera Temple", "City": "Qena", "Category": "Temple", "lat": 26.1415, "lng": 32.6697, "Description": "One of Egypt's best-preserved temples dedicated to Hathor.", "TicketPrice": 80.00, "OpeningHours": null, "Status": "Active", "Rating": 4.5, "Tags": "Temple, Hathor, Ceiling", "Visits": 5600 },
  { "Id": 12, "Name": "Tanis (Ancient City)", "City": "Sharqia", "Category": "Archaeological", "lat": 30.9769, "lng": 31.8731, "Description": "The forgotten pharaonic capital hiding undiscovered royal treasures.", "TicketPrice": 20.00, "OpeningHours": null, "Status": "Pending", "Rating": 4.0, "Tags": "Ruins, Archaeological, Hidden", "Visits": 900 },
  { "Id": 13, "Name": "Dahshur Pyramids", "City": "Giza", "Category": "Archaeological", "lat": 29.8086, "lng": 31.2214, "Description": "Home to the Bent Pyramid and Red Pyramid built by Pharaoh Sneferu.", "TicketPrice": 60.00, "OpeningHours": null, "Status": "Active", "Rating": 4.3, "Tags": "Pyramid, Archaeological, Quiet", "Visits": 4100 },
  { "Id": 14, "Name": "The Grand Egyptian Museum", "City": "Giza", "Category": "Museum", "lat": 29.9884, "lng": 31.1188, "Description": "The world's largest archaeological museum with over 100,000 artifacts.", "TicketPrice": 250.00, "OpeningHours": null, "Status": "Active", "Rating": 4.9, "Tags": "Museum, Modern, Tutankhamun", "Visits": 9800 },
  { "Id": 15, "Name": "Saladin Citadel", "City": "Cairo", "Category": "Historical", "lat": 30.0287, "lng": 31.2599, "Description": "A medieval Islamic fortification built by Saladin in the 12th century.", "TicketPrice": 60.00, "OpeningHours": null, "Status": "Active", "Rating": 4.2, "Tags": "Fortress, Historical, Mosque", "Visits": 6700 },
  { "Id": 16, "Name": "Bibliotheca Alexandrina", "City": "Alexandria", "Category": "Museum", "lat": 31.2089, "lng": 29.9097, "Description": "A major library and cultural centre on the Mediterranean coast.", "TicketPrice": 35.00, "OpeningHours": null, "Status": "Active", "Rating": 4.5, "Tags": "Library, Culture, Sea View", "Visits": 8900 },
  { "Id": 17, "Name": "Al-Azhar Mosque", "City": "Cairo", "Category": "Religious", "lat": 30.0454, "lng": 31.2620, "Description": "One of the oldest universities and a landmark of Islamic Cairo.", "TicketPrice": 0.00, "OpeningHours": null, "Status": "Active", "Rating": 4.6, "Tags": "Mosque, Islamic, Free Entry", "Visits": 11200 },
  { "Id": 18, "Name": "Philae Temple", "City": "Aswan", "Category": "Temple", "lat": 24.0249, "lng": 32.8846, "Description": "An island temple complex dedicated to the goddess Isis.", "TicketPrice": 120.00, "OpeningHours": null, "Status": "Active", "Rating": 4.7, "Tags": "Temple, Island, Isis", "Visits": 6400 }
]
